data/stk-test/orb/Moscow-to-28492.txt

                                                                                          06 Nov 2018 16:28:52
Facility-Facility1-To-Satellite-tle-28492:  Inview Azimuth, Elevation, & Range


  Time (JDate) 
                   Access Number          Time (UTCG)          Azimuth (deg)    Elevation (deg)     Range (km)
---------------    -------------    -----------------------    -------------    ---------------    -----------
2458390.5214625 1    29 Sep 2018 00:30:54.36           10.627              0.000    3055.862307
2458390.5221528 1    29 Sep 2018 00:31:54.00            7.659              3.705    2670.028397
2458390.5228472 1    29 Sep 2018 00:32:54.00            3.548              7.984    2293.146125
2458390.5235417 1    29 Sep 2018 00:33:54.00          357.631             13.019    1936.180712
2458390.5242361 1    29 Sep 2018 00:34:54.00          348.687             18.978    1614.375321
2458390.5249306 1    29 Sep 2018 00:35:54.00          334.666             25.566    1354.816864
2458390.5256250 1    29 Sep 2018 00:36:54.00          313.507             30.826    1199.982862
2458390.5263194 1    29 Sep 2018 00:37:54.00          287.850             31.090    1192.103186
2458390.5270139 1    29 Sep 2018 00:38:54.00          266.015             26.096    1333.790917
2458390.5277083 1    29 Sep 2018 00:39:54.00          251.365             19.475    1584.941395
2458390.5284028 1    29 Sep 2018 00:40:54.00          242.012             13.405    1901.853940
2458390.5290972 1    29 Sep 2018 00:41:54.00          235.830              8.273    2255.936861
2458390.5297917 1    29 Sep 2018 00:42:54.00          231.532              3.923    2631.026903
2458390.5304861 1    29 Sep 2018 00:43:54.00          228.398              0.147    3017.998357
2458390.5305149 1    29 Sep 2018 00:43:56.49          228.287              0.000    3034.224066


  Time (JDate) 
                   Access Number          Time (UTCG)          Azimuth (deg)    Elevation (deg)     Range (km)
---------------    -------------    -----------------------    -------------    ---------------    -----------
2458390.5894016 2    29 Sep 2018 02:08:44.30            4.979              0.000    3056.071228
2458390.5900926 2    29 Sep 2018 02:09:44.00          358.181              2.471    2792.516200
2458390.5907870 2    29 Sep 2018 02:10:44.00          349.969              4.758    2570.490220
2458390.5914815 2    29 Sep 2018 02:11:44.00          340.319              6.628    2404.354424
2458390.5921759 2    29 Sep 2018 02:12:44.00          329.458              7.796    2306.940788
2458390.5928704 2    29 Sep 2018 02:13:44.00          317.984              8.026    2287.427802
2458390.5935648 2    29 Sep 2018 02:14:44.00          306.730              7.264    2347.788797
2458390.5942593 2    29 Sep 2018 02:15:44.00          296.440              5.676    2481.909851
2458390.5949537 2    29 Sep 2018 02:16:44.00          287.516              3.541    2678.164524
2458390.5956481 2    29 Sep 2018 02:17:44.00          280.019              1.119    2923.275671
2458390.5959569 2    29 Sep 2018 02:18:10.68          277.110              0.000    3044.685595


  Time (JDate) 
                   Access Number          Time (UTCG)          Azimuth (deg)    Elevation (deg)     Range (km)
---------------    -------------    -----------------------    -------------    ---------------    -----------
2458390.6576251 3    29 Sep 2018 03:46:58.81          357.728              0.000    3056.114268

2458390.6583102 3    29 Sep 2018 03:47:58.00          349.311              0.547    2995.387262

2458390.6590046 3    29 Sep 2018 03:48:58.00          340.590              0.565    2992.860774

2458390.6596991 3    29 Sep 2018 03:49:58.00          332.030              0.041    3049.884806

2458390.6597355 3    29 Sep 2018 03:50:01.14          331.593              0.000    3054.462908


  Time (JDate) 
                   Access Number          Time (UTCG)          Azimuth (deg)    Elevation (deg)     Range (km)
---------------    -------------    -----------------------    -------------    ---------------    -----------
2458390.7873866 4    29 Sep 2018 06:53:50.20           70.545              0.000    3048.629715

2458390.7880787 4    29 Sep 2018 06:54:50.00           63.072              2.068    2828.321412

2458390.7887731 4    29 Sep 2018 06:55:50.00           54.405              3.806    2656.736488

2458390.7894676 4    29 Sep 2018 06:56:50.00           44.708              5.007    2545.585649

2458390.7901620 4    29 Sep 2018 06:57:50.00           34.370              5.485    2503.487948

2458390.7908565 4    29 Sep 2018 06:58:50.00           23.982              5.153    2534.121853

2458390.7915509 4    29 Sep 2018 06:59:50.00           14.151              4.074    2634.874781

2458390.7922454 4    29 Sep 2018 07:00:50.00            5.309              2.421    2797.825564

2458390.7929398 4    29 Sep 2018 07:01:50.00          357.637              0.396    3012.304598

2458390.7930668 4    29 Sep 2018 07:02:00.97          356.361              0.000    3056.223734


  Time (JDate) 
                   Access Number          Time (UTCG)          Azimuth (deg)    Elevation (deg)     Range (km)
---------------    -------------    -----------------------    -------------    ---------------    -----------
2458390.8524178 5    29 Sep 2018 08:27:28.90          120.219              0.000    3038.143707

2458390.8531019 5    29 Sep 2018 08:28:28.00          116.109              3.476    2677.655636

2458390.8537963 5    29 Sep 2018 08:29:28.00          110.562              7.388    2330.038032

2458390.8544907 5    29 Sep 2018 08:30:28.00          102.959             11.714    2012.345041

2458390.8551852 5    29 Sep 2018 08:31:28.00           92.351             16.284    1742.772020

2458390.8558796 5    29 Sep 2018 08:32:28.00           77.797             20.399    1548.134026

2458390.8565741 5    29 Sep 2018 08:33:28.00           59.564             22.609    1459.730693

2458390.8572685 5    29 Sep 2018 08:34:28.00           40.504             21.690    1496.939141

2458390.8579630 5    29 Sep 2018 08:35:28.00           24.247             18.204    1651.194664

2458390.8586574 5    29 Sep 2018 08:36:28.00           12.087             13.720    1893.607251

2458390.8593519 5    29 Sep 2018 08:37:28.00            3.381              9.266    2194.363156

2458390.8600463 5    29 Sep 2018 08:38:28.00          357.111              5.188    2531.757884

2458390.8607407 5    29 Sep 2018 08:39:28.00          352.483              1.513    2891.852141

2458390.8610482 5    29 Sep 2018 08:39:54.56          350.814              0.000    3056.125662


  Time (JDate) 
                   Access Number          Time (UTCG)          Azimuth (deg)    Elevation (deg)     Range (km)
---------------    -------------    -----------------------    -------------    ---------------    -----------
2458390.9192403 6    29 Sep 2018 10:03:42.36          167.832              0.000    3031.891398

2458390.9199306 6    29 Sep 2018 10:04:42.00          168.638              3.965    2624.745496

2458390.9206250 6    29 Sep 2018 10:05:42.00          169.702              8.738    2217.877877

2458390.9213194 6    29 Sep 2018 10:06:42.00          171.206             14.802    1817.823460

2458390.9220139 6    29 Sep 2018 10:07:42.00          173.598             23.162    1432.606081

2458390.9227083 6    29 Sep 2018 10:08:42.00          178.220             35.908    1080.584222

2458390.9234028 6    29 Sep 2018 10:09:42.00          191.621             56.574     808.634821

2458390.9240972 6    29 Sep 2018 10:10:42.00          271.350             73.512     716.234596

2458390.9247917 6    29 Sep 2018 10:11:42.00          325.006             50.836     863.342270

2458390.9254861 6    29 Sep 2018 10:12:42.00          334.805             32.415    1161.823642

2458390.9261806 6    29 Sep 2018 10:13:42.00          338.684             21.038    1524.368716

2458390.9268750 6    29 Sep 2018 10:14:42.00          340.837             13.384    1913.817949

2458390.9275694 6    29 Sep 2018 10:15:42.00          342.264              7.709    2315.395502

2458390.9282639 6    29 Sep 2018 10:16:42.00          343.321              3.169    2722.408398

2458390.9288302 6    29 Sep 2018 10:17:30.93          344.021              0.000    3055.866721


  Time (JDate) 
                   Access Number          Time (UTCG)          Azimuth (deg)    Elevation (deg)     Range (km)
---------------    -------------    -----------------------    -------------    ---------------    -----------
2458390.9882583 7    29 Sep 2018 11:43:05.52          220.026              0.000    3034.697439

2458390.9889468 7    29 Sep 2018 11:44:05.00          225.979              2.924    2728.791787

2458390.9896412 7    29 Sep 2018 11:45:05.00          233.421              5.931    2450.408517

2458390.9903356 7    29 Sep 2018 11:46:05.00          242.659              8.837    2214.935426

2458390.9910301 7    29 Sep 2018 11:47:05.00          253.907             11.320    2038.253991

2458390.9917245 7    29 Sep 2018 11:48:05.00          266.940             12.901    1937.153392

2458390.9924190 7    29 Sep 2018 11:49:05.00          280.845             13.141    1923.850986

2458390.9931134 7    29 Sep 2018 11:50:05.00          294.264             11.970    1999.995475

2458390.9938079 7    29 Sep 2018 11:51:05.00          306.099              9.745    2155.705069

2458390.9945023 7    29 Sep 2018 11:52:05.00          315.942              6.963    2374.700671

2458390.9951968 7    29 Sep 2018 11:53:05.00          323.914              4.000    2640.408967

2458390.9958912 7    29 Sep 2018 11:54:05.00          330.352              1.057    2939.170772

2458390.9961462 7    29 Sep 2018 11:54:27.03          332.401              0.000    3055.066780


  Time (JDate) 
                   Access Number          Time (UTCG)          Azimuth (deg)    Elevation (deg)     Range (km)
---------------    -------------    -----------------------    -------------    ---------------    -----------
2458391.4113646 8    29 Sep 2018 21:52:21.90           25.519              0.000    3054.729460

2458391.4120486 8    29 Sep 2018 21:53:21.00           30.794              3.091    2728.536031

2458391.4127431 8    29 Sep 2018 21:54:21.00           37.530              6.416    2420.917805

2458391.4134375 8    29 Sep 2018 21:55:21.00           46.141              9.839    2148.811384

2458391.4141319 8    29 Sep 2018 21:56:21.00           57.126             13.085    1928.777686

2458391.4148264 8    29 Sep 2018 21:57:21.00           70.668             15.586    1781.419849

2458391.4155208 8    29 Sep 2018 21:58:21.00           86.059             16.590    1726.274955

2458391.4162153 8    29 Sep 2018 21:59:21.00          101.537             15.690    1772.362276

2458391.4169097 8    29 Sep 2018 22:00:21.00          115.282             13.238    1912.359059

2458391.4176042 8    29 Sep 2018 22:01:21.00          126.475              9.983    2127.451855

2458391.4182986 8    29 Sep 2018 22:02:21.00          135.244              6.522    2396.893022

2458391.4189931 8    29 Sep 2018 22:03:21.00          142.078              3.150    2703.669854

2458391.4196800 8    29 Sep 2018 22:04:20.35          147.418              0.000    3031.831494


  Time (JDate) 
                   Access Number          Time (UTCG)          Azimuth (deg)    Elevation (deg)     Range (km)
---------------    -------------    -----------------------    -------------    ---------------    -----------
2458391.4787780 9    29 Sep 2018 23:29:26.42           14.948              0.000    3055.581226

2458391.4794676 9    29 Sep 2018 23:30:26.00           15.138              3.932    2647.860891

2458391.4801620 9    29 Sep 2018 23:31:26.00           15.303              8.664    2239.382204

2458391.4808565 9    29 Sep 2018 23:32:26.00           15.426             14.673    1836.713052

2458391.4815509 9    29 Sep 2018 23:33:26.00           15.470             22.969    1447.141756

2458391.4822454 9    29 Sep 2018 23:34:26.00           15.323             35.754    1087.403464

2458391.4829398 9    29 Sep 2018 23:35:26.00           14.396             57.638     801.352321

2458391.4836343 9    29 Sep 2018 23:36:26.00          228.492             87.377     689.780644

2458391.4843287 9    29 Sep 2018 23:37:26.00          198.984             54.312     827.165592

2458391.4850231 9    29 Sep 2018 23:38:26.00          198.224             33.748    1125.468713

2458391.4857176 9    29 Sep 2018 23:39:26.00          198.083             21.637    1490.285201

2458391.4864120 9    29 Sep 2018 23:40:26.00          198.099             13.672    1882.328923

2458391.4871065 9    29 Sep 2018 23:41:26.00          198.175              7.839    2286.462528

2458391.4878009 9    29 Sep 2018 23:42:26.00          198.279              3.209    2695.970685

2458391.4883655 9    29 Sep 2018 23:43:14.78          198.373              0.000    3030.380628


  Time (JDate) 
                   Access Number          Time (UTCG)          Azimuth (deg)    Elevation (deg)     Range (km)
---------------    -------------    -----------------------    -------------    ---------------    -----------
2458391.5465922
                              10    30 Sep 2018 01:07:05.57            8.442              0.000    3055.907245

2458391.5472801
                              10    30 Sep 2018 01:08:05.00            3.863              3.339    2705.748016

2458391.5479745
                              10    30 Sep 2018 01:09:05.00          357.785              6.987    2374.566483

2458391.5486690
                              10    30 Sep 2018 01:10:05.00          349.645             10.863    2078.212862

2458391.5493634
                              10    30 Sep 2018 01:11:05.00          338.724             14.696    1835.143231

2458391.5500579
                              10    30 Sep 2018 01:12:05.00          324.578             17.791    1669.973227

2458391.5507523
                              10    30 Sep 2018 01:13:05.00          307.943             19.082    1607.624980

2458391.5514468
                              10    30 Sep 2018 01:14:05.00          291.187             17.945    1659.940694

2458391.5521412
                              10    30 Sep 2018 01:15:05.00          276.770             14.925    1816.796811

2458391.5528356
                              10    30 Sep 2018 01:16:05.00          265.568             11.095    2053.777200

2458391.5535301
                              10    30 Sep 2018 01:17:05.00          257.192              7.192    2345.859296

2458391.5542245
                              10    30 Sep 2018 01:18:05.00          250.926              3.510    2673.992513

2458391.5549190
                              10    30 Sep 2018 01:19:05.00          246.154              0.112    3025.277271

2458391.5549429
                              10    30 Sep 2018 01:19:07.07          246.010              0.000    3037.707667


  Time (JDate) 
                   Access Number          Time (UTCG)          Azimuth (deg)    Elevation (deg)     Range (km)
---------------    -------------    -----------------------    -------------    ---------------    -----------
2458391.6145975
                              11    30 Sep 2018 02:45:01.22            2.882              0.000    3056.052824

2458391.6152894
                              11    30 Sep 2018 02:46:01.00          355.177              1.832    2858.150863

2458391.6159838
                              11    30 Sep 2018 02:47:01.00          346.404              3.274    2711.801164

2458391.6166782
                              11    30 Sep 2018 02:48:01.00          336.808              4.144    2627.222632

2458391.6173727
                              11    30 Sep 2018 02:49:01.00          326.814              4.308    2610.756661

2458391.6180671
                              11    30 Sep 2018 02:50:01.00          316.967              3.740    2663.691900

2458391.6187616
                              11    30 Sep 2018 02:51:01.00          307.763              2.531    2781.807649

2458391.6194560
                              11    30 Sep 2018 02:52:01.00          299.520              0.844    2956.789415

2458391.6197603
                              11    30 Sep 2018 02:52:27.29          296.246              0.000    3048.791992


  Time (JDate) 
                   Access Number          Time (UTCG)          Azimuth (deg)    Elevation (deg)     Range (km)
---------------    -------------    -----------------------    -------------    ---------------    -----------
2458391.7472588
                              12    30 Sep 2018 05:56:03.16           36.251              0.000    3054.118980

2458391.7479514
                              12    30 Sep 2018 05:57:03.00           27.814              0.847    2961.918078

2458391.7486458
                              12    30 Sep 2018 05:58:03.00           18.976              1.163    2928.505624

2458391.7493403
                              12    30 Sep 2018 05:59:03.00           10.120              0.907    2956.378845

2458391.7500347
                              12    30 Sep 2018 06:00:03.00            1.615              0.111    3043.767772

2458391.7501074
                              12    30 Sep 2018 06:00:09.28            0.758              0.000    3056.166947


  Time (JDate) 
                   Access Number          Time (UTCG)          Azimuth (deg)    Elevation (deg)     Range (km)
---------------    -------------    -----------------------    -------------    ---------------    -----------
2458391.8112657
                              13    30 Sep 2018 07:28:13.36           89.420              0.000    3044.577960

2458391.8119560
                              13    30 Sep 2018 07:29:13.00           82.945              2.679    2762.408405

2458391.8126505
                              13    30 Sep 2018 07:30:13.00           74.979              5.266    2517.638123

2458391.8133449
                              13    30 Sep 2018 07:31:13.00           65.388              7.525    2325.705363

2458391.8140394
                              13    30 Sep 2018 07:32:13.00           54.272              9.128    2201.450551

2458391.8147338
                              13    30 Sep 2018 07:33:13.00           42.184              9.739    2157.226339

2458391.8154282
                              13    30 Sep 2018 07:34:13.00           30.075              9.202    2198.116826

2458391.8161227
                              13    30 Sep 2018 07:35:13.00           18.907              7.656    2319.514785

2458391.8168171
                              13    30 Sep 2018 07:36:13.00            9.256              5.434    2509.344157

2458391.8175116
                              13    30 Sep 2018 07:37:13.00            1.242              2.867    2752.815623

2458391.8182060
                              13    30 Sep 2018 07:38:13.00          354.704              0.179    3036.186771

2458391.8182521
                              13    30 Sep 2018 07:38:16.98          354.316              0.000    3056.125817


  Time (JDate) 
                   Access Number          Time (UTCG)          Azimuth (deg)    Elevation (deg)     Range (km)
---------------    -------------    -----------------------    -------------    ---------------    -----------
2458391.8769327
                              14    30 Sep 2018 09:02:46.99          137.851              0.000    3034.922974

2458391.8776157
                              14    30 Sep 2018 09:03:46.00          135.428              3.780    2645.240776

2458391.8783102
                              14    30 Sep 2018 09:04:46.00          132.019              8.262    2257.347142

2458391.8790046
                              14    30 Sep 2018 09:05:46.00          127.027             13.689    1885.102491

2458391.8796991
                              14    30 Sep 2018 09:06:46.00          119.190             20.463    1542.035843

2458391.8803935
                              14    30 Sep 2018 09:07:46.00          105.934             28.732    1254.367037

2458391.8810880
                              14    30 Sep 2018 09:08:46.00           83.087             36.588    1069.462865

2458391.8817824
                              14    30 Sep 2018 09:09:46.00           51.752             37.959    1044.356779

2458391.8824769
                              14    30 Sep 2018 09:10:46.00           25.731             31.292    1189.327096

2458391.8831713
                              14    30 Sep 2018 09:11:46.00           10.191             22.809    1453.919764

2458391.8838657
                              14    30 Sep 2018 09:12:46.00            1.176             15.609    1784.914345

2458391.8845602
                              14    30 Sep 2018 09:13:46.00          355.580              9.853    2150.841083

2458391.8852546
                              14    30 Sep 2018 09:14:46.00          351.854              5.145    2535.435067

2458391.8859491
                              14    30 Sep 2018 09:15:46.00          349.232              1.152    2930.066092

2458391.8861685
                              14    30 Sep 2018 09:16:04.96          348.561              0.000    3055.991010


  Time (JDate) 
                   Access Number          Time (UTCG)          Azimuth (deg)    Elevation (deg)     Range (km)
---------------    -------------    -----------------------    -------------    ---------------    -----------
2458391.9444917
                              15    30 Sep 2018 10:40:04.08          186.042              0.000    3031.542718

2458391.9451852
                              15    30 Sep 2018 10:41:04.00          188.855              3.798    2640.443740

2458391.9458796
                              15    30 Sep 2018 10:42:04.00          192.624              8.227    2257.261216

2458391.9465741
                              15    30 Sep 2018 10:43:04.00          197.964             13.572    1889.682006

2458391.9472685
                              15    30 Sep 2018 10:44:04.00          206.085             20.212    1550.784803

2458391.9479630
                              15    30 Sep 2018 10:45:04.00          219.425             28.282    1265.629378

2458391.9486574
                              15    30 Sep 2018 10:46:04.00          241.912             36.036    1079.130279

2458391.9493519
                              15    30 Sep 2018 10:47:04.00          272.864             37.799    1046.183223

2458391.9500463
                              15    30 Sep 2018 10:48:04.00          299.439             31.634    1179.696010

2458391.9507407
                              15    30 Sep 2018 10:49:04.00          315.847             23.328    1433.349018

2458391.9514352
                              15    30 Sep 2018 10:50:04.00          325.631             16.145    1754.943197

2458391.9521296
                              15    30 Sep 2018 10:51:04.00          331.897             10.371    2112.605410

2458391.9528241
                              15    30 Sep 2018 10:52:04.00          336.234              5.648    2489.629833

2458391.9535185
                              15    30 Sep 2018 10:53:04.00          339.438              1.647    2877.114700

2458391.9538348
                              15    30 Sep 2018 10:53:31.33          340.644              0.000    3055.611676


  Time (JDate) 
                   Access Number          Time (UTCG)          Azimuth (deg)    Elevation (deg)     Range (km)
---------------    -------------    -----------------------    -------------    ---------------    -----------
2458392.0146616
                              16    30 Sep 2018 12:21:06.76          244.186              0.000    3038.914331

2458392.0153472
                              16    30 Sep 2018 12:22:06.00          251.652              2.029    2823.467387

2458392.0160417
                              16    30 Sep 2018 12:23:06.00          260.323              3.793    2649.971651

2458392.0167361
                              16    30 Sep 2018 12:24:06.00          270.011              5.086    2531.310155

2458392.0174306
                              16    30 Sep 2018 12:25:06.00          280.403              5.728    2475.728711

2458392.0181250
                              16    30 Sep 2018 12:26:06.00          290.984              5.614    2487.532375

2458392.0188194
                              16    30 Sep 2018 12:27:06.00          301.183              4.767    2565.598207

2458392.0195139
                              16    30 Sep 2018 12:28:06.00          310.549              3.327    2703.761729

2458392.0202083
                              16    30 Sep 2018 12:29:06.00          318.850              1.480    2892.792971

2458392.0207065
                              16    30 Sep 2018 12:29:49.04          324.126              0.000    3054.130064


  Time (JDate) 
                   Access Number          Time (UTCG)          Azimuth (deg)    Elevation (deg)     Range (km)
---------------    -------------    -----------------------    -------------    ---------------    -----------
2458392.3696423
                              17    30 Sep 2018 20:52:17.10           40.355              0.000    3052.874880

2458392.3703356
                              17    30 Sep 2018 20:53:17.00           48.313              1.606    2877.697879

2458392.3710301
                              17    30 Sep 2018 20:54:17.00           57.151              2.834    2750.419048

2458392.3717245
                              17    30 Sep 2018 20:55:17.00           66.646              3.544    2678.925690

2458392.3724190
                              17    30 Sep 2018 20:56:17.00           76.438              3.637    2668.147890

2458392.3731134
                              17    30 Sep 2018 20:57:17.00           86.084              3.096    2718.998641

2458392.3738079
                              17    30 Sep 2018 20:58:17.00           95.180              1.996    2828.104492

2458392.3745023
                              17    30 Sep 2018 20:59:17.00          103.455              0.465    2988.821867

2458392.3746882
                              17    30 Sep 2018 20:59:33.06          105.514              0.000    3039.559076


  Time (JDate) 
                   Access Number          Time (UTCG)          Azimuth (deg)    Elevation (deg)     Range (km)
---------------    -------------    -----------------------    -------------    ---------------    -----------
2458392.4362392
                              18    30 Sep 2018 22:28:11.07           20.742              0.000    3055.106552

2458392.4369329
                              18    30 Sep 2018 22:29:11.00           24.258              3.628    2676.479817

2458392.4376273
                              18    30 Sep 2018 22:30:11.00           28.875              7.776    2308.601806

2458392.4383218
                              18    30 Sep 2018 22:31:11.00           35.228             12.616    1960.220762

2458392.4390162
                              18    30 Sep 2018 22:32:11.00           44.438             18.279    1645.764992

2458392.4397106
                              18    30 Sep 2018 22:33:11.00           58.316             24.481    1390.309296

2458392.4404051
                              18    30 Sep 2018 22:34:11.00           78.664             29.537    1232.614433

2458392.4410995
                              18    30 Sep 2018 22:35:11.00          103.452             30.243    1212.358668

2458392.4417940
                              18    30 Sep 2018 22:36:11.00          125.460             25.966    1336.048255

2458392.4424884
                              18    30 Sep 2018 22:37:11.00          140.930             19.763    1569.747344

2458392.4431829
                              18    30 Sep 2018 22:38:11.00          151.147             13.853    1872.079875

2458392.4438773
                              18    30 Sep 2018 22:39:11.00          158.082              8.771    2214.243064

2458392.4445718
                              18    30 Sep 2018 22:40:11.00          163.027              4.434    2579.399268

2458392.4452662
                              18    30 Sep 2018 22:41:11.00          166.723              0.660    2957.891304

2458392.4453968
                              18    30 Sep 2018 22:41:22.28          167.317              0.000    3030.049762

